{"version": 0.6, "generator": "Overpass API 0.7.62.10 2d4cfc48", "osm3s": {"timestamp_osm_base": "2026-03-08T14:47:01Z", "copyright": "The data included in this document is from www.openstreetmap.org. The data is made available under ODbL."}, "elements": [{"type": "node", "id": 916286726, "lat": 40.1190128, "lon": -76.2996044, "tags": {"addr:housenumber": "500", "addr:street": "Airport Road", "amenity": "restaurant", "check_date": "2023-04-08", "contact:website": "https://www.fiorentinos.net/", "cuisine": "italian", "name": "Fiorentino's Italian Restaurant", "opening_hours": "Mo-We,Su 11:00-22:00; Th 11:00-23:00; Fr-Sa 11:00-24:00"}}, {"type": "node", "id": 917900268, "lat": 40.1141878, "lon": -76.3062526, "tags": {"addr:city": "Lititz", "addr:housenumber": "3140", "addr:postcode": "17543", "addr:state": "PA", "addr:street": "Lititz Pike", "amenity": "restaurant", "check_date": "2023-04-08", "contact:phone": "+1 717-490-6198", "contact:website": "https://www.knddiner.com", "name": "Knight & Day Diner", "opening_hours": "24/7"}}, {"type": "node", "id": 3022328140, "lat": 40.1141935, "lon": -76.3072342}, {"type": "node", "id": 3022328142, "lat": 40.1140337, "lon": -76.3070166}, {"type": "node", "id": 3703036340, "lat": 40.1009134, "lon": -76.3052016}, {"type": "node", "id": 3703036341, "lat": 40.1008083, "lon": -76.3052012}, {"type": "node", "id": 3703036342, "lat": 40.1008087, "lon": -76.3050209}, {"type": "node", "id": 3703036343, "lat": 40.1009138, "lon": -76.3050212}, {"type": "node", "id": 4591379484, "lat": 40.1143398, "lon": -76.2908924, "tags": {"addr:city": "Lititz", "addr:housenumber": "543", "addr:postcode": "17543", "addr:state": "PA", "addr:street": "Airport Road", "amenity": "restaurant", "check_date": "2026-01-06", "contact:facebook": "https://www.facebook.com/people/Micks-All-American-Pub-Lititz/100063580166130/", "name": "Mick's All-American Pub", "opening_hours": "Mo-Th,Su 11:00-23:00; Fr-Sa 11:00-24:00", "phone": "+1 717-517-8288", "website": "https://www.micksallamericanpub.com/lititz"}}, {"type": "node", "id": 9522584784, "lat": 40.1140817, "lon": -76.3073747}, {"type": "node", "id": 9522584785, "lat": 40.1139219, "lon": -76.3071571}, {"type": "node", "id": 12073245131, "lat": 40.1168046, "lon": -76.3047671, "tags": {"addr:city": "Lititz", "addr:housenumber": "3205", "addr:postcode": "17543", "addr:state": "PA", "addr:street": "Lititz Pike", "atm": "yes", "brand": "Sheetz", "brand:wikidata": "Q7492551", "delivery": "yes", "internet_access": "wlan", "name": "Sheetz", "opening_hours": "24/7", "phone": "+1 717-984-6067", "ref": "646", "shop": "convenience", "website": "https://orders.sheetz.com/findasheetz/store/646"}}, {"type": "way", "id": 366325826, "nodes": [3703036340, 3703036341, 3703036342, 3703036343, 3703036340], "tags": {"addr:city": "Neffsville", "addr:housenumber": "2719", "addr:street": "Lititz Pike", "amenity": "restaurant", "building": "yes", "check_date": "2025-11-05", "contact:website": "https://carusospizzeria.com/", "cuisine": "italian", "name": "Caruso's Italian Restaurant", "phone": "+1 717-569-7989", "source:geometry": "Bing 2012", "website:menu": "https://order.toasttab.com/online/carusos"}}, {"type": "way", "id": 1033611701, "nodes": [3022328140, 9522584784, 9522584785, 3022328142, 3022328140], "tags": {"addr:city": "Lititz", "addr:housenumber": "245", "addr:postcode": "17543", "addr:state": "PA", "addr:street": "Bloomfield Drive", "addr:unit": "107", "amenity": "restaurant", "building:levels": "1", "building:part": "yes", "cuisine": "chinese", "name": "Mojo Asian Cuisine"}}]}